stop_id,stop_code,stop_name,stop_desc,stop_lat,stop_lon,zone_id,stop_url,location_type,platform_code,parent_station
1001_01,,伊野,,33.548379,133.428492,E1,,0,,
1001_02,,伊野,,33.548335,133.428568,W0,,0,,
1002_01,,伊野駅前,,33.548444,133.429747,E11,,0,,
1002_02,,伊野駅前,,33.548455,133.430095,W0,,0,,
1003_01,,鳴谷,,33.548708,133.433353,E11,,0,,
1003_02,,鳴谷,,33.548679,133.433283,W0,,0,,
1004_01,,北山,,33.549156,133.438535,E11,,0,,
1004_02,,北山,,33.549114,133.438461,W0,,0,,
1005_01,,北内,,33.549857,133.442192,E11,,0,,
1005_02,,北内,,33.549716,133.441505,W0,,0,,
1006_01,,伊野商業前,,33.550243,133.44441,E11,,0,,
1006_02,,伊野商業前,,33.550223,133.444477,W0,,0,,
1007_01,,枝川,,33.551364,133.449572,E11,,0,,
1007_02,,枝川,,33.551323,133.449533,1007_02,,0,,
1008_01,,中山,,33.551724,133.452861,E11,,0,,
1008_02,,中山,,33.551711,133.453126,W0,,0,,
1009_01,,八代通,,33.552211,133.456563,E2,,0,,
1009_02,,八代通,,33.552174,133.456612,W1,,0,,
1010_01,,宇治団地前,,33.551877,133.461343,E21,,0,,
1010_02,,宇治団地前,,33.551853,133.461394,W11,,0,,
1011_01,,咥内,,33.552337,133.470474,E21,,0,,
1011_02,,咥内,,33.552306,133.47043,W11,,0,,
1012_01,,宮の奥,,33.552375,133.47604,E21,,0,,
1012_02,,宮の奥,,33.55234,133.475938,W11,,0,,
1013_01,,朝倉神社前,,33.551934,133.481052,E21,,0,,
1013_02,,朝倉神社前,,33.551841,133.481312,W11,,0,,
1014_01,,朝倉駅前,,33.550794,133.48592,E3,,0,,
1014_02,,朝倉駅前,,33.550788,133.485866,W2,,0,,
1015_01,,朝倉,,33.550763,133.488266,E31,,0,,
1015_02,,朝倉,,33.550707,133.488234,W21,,0,,
1016_01,,曙町,,33.551134,133.490635,E31,,0,,
1016_02,,曙町,,33.551136,133.490839,W21,,0,,
1017_01,,曙町東町,,33.551611,133.493373,E4,,0,,
1017_02,,曙町東町,,33.551567,133.493338,W22,,0,,
1018_01,,鴨部,,33.552225,133.496931,E41,,0,,
1018_02,,鴨部,,33.552172,133.496825,W23,,0,,
1019_01,,鏡川橋,,33.555907,133.49946,E41,,0,,
1019_02,,鏡川橋,,33.555672,133.498485,W24,,0,,
1020_01,,蛍橋,,33.555417,133.503202,E41,,0,,
1020_02,,蛍橋,,33.555376,133.503235,W24,,0,,
1021_01,,旭町三丁目,,33.55572,133.506533,E41,,0,,
1021_02,,旭町三丁目,,33.555699,133.5069,W24,,0,,
1022_01,,旭駅前通,,33.555971,133.509382,E41,,0,,
1022_02,,旭駅前通,,33.555995,133.509823,W3,,0,,
1023_01,,旭町一丁目,,33.556844,133.513916,C1,,0,,
1023_02,,旭町一丁目,,33.556638,133.513178,C1,,0,,
1024_01,,上町五丁目,,33.557317,133.517076,C1,,0,,
1024_02,,上町五丁目,,33.557262,133.517075,C1,,0,,
1025_01,,上町四丁目,,33.557364,133.520026,C1,,0,,
1025_02,,上町四丁目,,33.557305,133.519502,C1,,0,,
1026_01,,上町二丁目,,33.557388,133.523334,C1,,0,,
1026_02,,上町二丁目,,33.557326,133.522625,C1,,0,,
1027_01,,上町一丁目,,33.557399,133.525443,C1,,0,,
1027_02,,上町一丁目,,33.557334,133.524766,C1,,0,,
1028_01,,枡形,,33.557454,133.527669,C1,,0,,
1028_02,,枡形,,33.557343,133.526931,C1,,0,,
1029_01,,グランド通,,33.55768,133.529756,C1,,0,,
1029_02,,グランド通,,33.557512,133.529048,C1,,0,,
1030_01,,県庁前,,33.558235,133.532614,C1,,0,,
1030_02,,県庁前,,33.558023,133.531861,C1,,0,,
1031_01,,高知城前,,33.558616,133.534543,C1,,0,,
1031_02,,高知城前,,33.558431,133.533924,C1,,0,,
1032_01,,大橋通,,33.559053,133.536717,C1,,0,,
1032_02,,大橋通,,33.558859,133.53608,C1,,0,,
1033_01,,堀詰,,33.559569,133.539234,C1,,0,,
1033_02,,堀詰,,33.559504,133.539239,C1,,0,,
1034_01,,はりまや橋,,33.559614,133.542408,C1,,0,1,
1034_02,,はりまや橋,,33.559565,133.542317,C1,,0,2,
1101_01,,デンテツ・ターミナルビル前,,33.55942,133.544088,C1,,0,6,
1101_02,,デンテツ・ターミナルビル前,,33.559467,133.543318,C1,,0,5,
1102_01,,菜園場町,,33.559079,133.548937,C1,,0,,
1102_02,,菜園場町,,33.559072,133.548274,C1,,0,,
1103_01,,宝永町,,33.558687,133.554004,C1,,0,,
1103_02,,宝永町,,33.55867,133.553467,C1,,0,,
1104_01,,知寄町一丁目,,33.558397,133.557057,C1,,0,,
1104_02,,知寄町一丁目,,33.558398,133.556401,C1,,0,,
1105_01,,知寄町二丁目,,33.558081,133.560236,C1,,0,,
1105_02,,知寄町二丁目,,33.558085,133.55962,C1,,0,,
1106_01,,知寄町,,33.557889,133.562153,C1,,0,,
1106_02,,知寄町,,33.557888,133.561526,C1,,0,,
1107_01,,知寄町三丁目,,33.557548,133.565586,E5,,0,,
1107_02,,知寄町三丁目,,33.55757,133.564797,W38,,0,,
1108_01,,葛島橋東詰,,33.557085,133.569356,E51,,0,,
1108_02,,葛島橋東詰,,33.557038,133.569298,W39,,0,,
1109_01,,西高須,,33.558341,133.573226,E51,,0,,
1109_02,,西高須,,33.558286,133.573218,W39,,0,,
1110_01,,県立美術館通,,33.558936,133.57514,E51,,0,,
1110_02,,県立美術館通,,33.558868,133.575108,W39,,0,,
1111_01,,高須,,33.559372,133.577067,E51,,0,,
1111_02,,高須,,33.559319,133.577018,W39,,0,,
1112_01,,文珠通,,33.559378,133.579358,E51,,0,,
1112_02,,文珠通,,33.559331,133.579264,W39,,0,,
1113_01,,介良通,,33.560097,133.583257,E52,,0,,
1113_02,,介良通,,33.560027,133.583257,W4,,0,,
1114_01,,新木,,33.562515,133.586885,E53,,0,,
1114_02,,新木,,33.562522,133.586997,W41,,0,,
1115_01,,東新木,,33.564405,133.589999,E53,,0,,
1115_02,,東新木,,33.564482,133.590229,W41,,0,,
1116_01,,田辺島通,,33.56667,133.593399,E53,,0,,
1116_02,,田辺島通,,33.566339,133.59296,W41,,0,,
1117_01,,鹿児,,33.567166,133.597379,E6,,0,,
1117_02,,鹿児,,33.567134,133.597284,W42,,0,,
1118_01,,舟戸,,33.570472,133.599495,E61,,0,,
1118_02,,舟戸,,33.570374,133.599559,W5,,0,,
1119_01,,北浦,,33.57366,133.603715,E62,,0,,
1119_02,,北浦,,33.573681,133.603896,W51,,0,,
1120_01,,領石通,,33.574209,133.607818,E62,,0,,
1120_02,,領石通,,33.574157,133.607745,W51,,0,,
1121_01,,清和学園前,,33.574975,133.612927,E62,,0,,
1121_02,,清和学園前,,33.574925,133.612964,W51,,0,,
1122_01,,一条橋,,33.574856,133.613656,E62,,0,,
1122_02,,一条橋,,33.57482,133.613609,W51,,0,,
1123_01,,明見橋,,33.574579,133.617612,E62,,0,,
1123_02,,明見橋,,33.574497,133.617512,W51,,0,,
1124_01,,長崎,,33.575078,133.620724,E7,,0,,
1124_02,,長崎,,33.575062,133.62085,W6,,0,,
1125_01,,小篭通,,33.576287,133.625431,E8,,0,,
1125_02,,小篭通,,33.576285,133.625633,W61,,0,,
1126_01,,篠原,,33.577107,133.631118,E8,,0,,
1126_02,,篠原,,33.577045,133.631255,W61,,0,,
1127_01,,住吉通,,33.57669,133.635841,E8,,0,,
1127_02,,住吉通,,33.576589,133.636155,W61,,0,,
1128_01,,東工業前,,33.576367,133.638555,E8,,0,,
1128_02,,東工業前,,33.576373,133.638055,W61,,0,,
1129_01,,後免西町,,33.575857,133.642763,E8,,0,,
1129_02,,後免西町,,33.57582,133.642686,W61,,0,,
1130_01,,後免中町,,33.575494,133.645946,E8,,0,,
1130_02,,後免中町,,33.575521,133.645174,W61,,0,,
1131_01,,後免東町,,33.574529,133.648016,E8,,0,,
1131_02,,後免東町,,33.574529,133.647559,W61,,0,,
1132_01,,後免町,,33.574405,133.650621,E8,,0,,
1132_02,,後免町,,33.574365,133.65069,W7,,0,,
1201_01,,高知駅前,,33.566795,133.543708,C1,,0,,
1202_01,,高知橋,,33.564447,133.543422,C1,,0,,
1202_02,,高知橋,,33.563888,133.543434,C1,,0,,
1203_01,,蓮池町通,,33.56253,133.543223,C1,,0,,
1203_02,,蓮池町通,,33.561911,133.54324,C1,,0,,
1204_01,,はりまや橋,,33.559183,133.542784,C1,,0,3,
1204_02,,はりまや橋,,33.559141,133.542837,C1,,0,4,
1205_01,,梅の辻,,33.554428,133.543351,C1,,0,,
1205_02,,梅の辻,,33.55388,133.543787,C1,,0,,
1206_01,,桟橋通一丁目,,33.55067,133.545884,C1,,0,,
1206_02,,桟橋通一丁目,,33.550115,133.546337,C1,,0,,
1207_01,,桟橋通二丁目,,33.54908,133.546958,C1,,0,,
1207_02,,桟橋通二丁目,,33.5491,133.547013,C1,,0,,
1208_01,,桟橋通三丁目,,33.546521,133.548677,C1,,0,,
1208_02,,桟橋通三丁目,,33.546881,133.548509,C1,,0,,
1209_01,,桟橋通四丁目,,33.544515,133.550031,C1,,0,,
1209_02,,桟橋通四丁目,,33.544966,133.549799,C1,,0,,
1210_01,,桟橋車庫前,,33.54184,133.551838,C1,,0,,
1210_02,,桟橋車庫前,,33.541818,133.551931,C1,,0,,
1211_01,,桟橋通五丁目,,33.540461,133.552779,C1,,0,,
